City_ID,City,Lat,Lng,Max Temp,Humidity,Cloudiness,Wind Speed,Country,Date
0,Mar del Plata,-38.0023,-57.5575,57.15,54,0,17.27,AR,1698699460
1,Upata,8.0086,-62.3989,79.86,73,100,3.89,VE,1698699460
2,Kozan,37.4552,35.8157,73.02,35,100,5.28,TR,1698699460
3,Squamish,49.7014,-123.1512,56.21,44,31,2.3,CA,1698699460
4,Valparaíso,-33.0393,-71.6273,62.02,65,0,13.8,CL,1698699461
5,Port Elizabeth,-33.918,25.5701,60.31,83,40,17.27,ZA,1698699461
6,Adamstown,-25.066,-130.1015,73.02,74,100,9.01,PN,1698699461
7,Blackmans Bay,-43.0167,147.3167,45.91,72,33,4.0,AU,1698699461
8,Bethel,41.3712,-73.414,52.59,88,100,3.44,US,1698699416
9,Swakopmund,-22.6833,14.5333,58.05,82,12,6.24,NA,1698699461
10,Talnakh,69.4865,88.3972,2.21,95,100,5.41,RU,1698699462
11,Petropavlovsk-Kamchatskiy,53.0452,158.6483,31.46,82,20,11.01,RU,1698699462
12,Ushuaia,-54.8,-68.3,38.89,65,75,21.0,AR,1698699462
13,Port Mathurin,-19.6833,63.4167,76.44,81,10,18.14,MU,1698699320
14,West Island,-12.1568,96.8225,78.78,83,100,16.11,CC,1698699462
15,Fale old settlement,-9.3852,-171.2468,83.41,76,32,15.21,TK,1698699462
16,Aasiaat,68.7098,-52.8699,25.79,77,6,18.9,GL,1698699463
17,Koné,-21.0595,164.8658,72.1,63,95,4.36,NC,1698699463
18,Qaqortoq,60.7167,-46.0333,42.35,61,100,21.99,GL,1698699463
19,Edinburgh of the Seven Seas,-37.0676,-12.3116,54.97,94,100,29.1,SH,1698699463
20,Port Alfred,-33.5906,26.891,57.18,93,70,1.99,ZA,1698699464
21,Carnarvon,-24.8667,113.6333,67.64,74,0,18.34,AU,1698699464
22,Ebon,4.582,168.6964,83.53,74,100,9.13,MH,1698699464
23,Khilok,51.3674,110.4676,17.24,65,21,2.8,RU,1698699464
24,Bilibino,68.0546,166.4372,-2.09,74,39,3.51,RU,1698699464
25,Kerikeri,-35.2268,173.9474,63.91,96,98,4.0,NZ,1698699464
26,Waitangi,-43.9535,-176.5597,57.81,83,73,14.0,NZ,1698699465
27,Madera,37.1666,-119.8343,73.44,20,8,4.94,US,1698699465
28,Karratha,-20.7377,116.8463,79.57,37,92,8.52,AU,1698699465
29,Albany,42.6001,-73.9662,46.2,87,100,9.95,US,1698698680
30,Burang,30.25,81.1667,30.85,75,81,1.97,CN,1698699465
31,Quellón,-43.1167,-73.6167,45.19,82,96,6.15,CL,1698699465
32,El Calafate,-50.3408,-72.2768,41.86,60,41,3.2,AR,1698699465
33,Severo-Yeniseyskiy,60.3725,93.0408,-0.49,99,80,2.37,RU,1698699466
34,Grytviken,-54.2811,-36.5092,40.37,76,26,9.37,GS,1698699466
35,Puerto Natales,-51.7236,-72.4875,46.85,36,0,4.61,CL,1698699466
36,Kukës,42.0769,20.4219,58.75,49,2,6.93,AL,1698699466
37,Papatowai,-46.5619,169.4708,55.09,72,100,4.09,NZ,1698699466
38,Puerto Baquerizo Moreno,-0.9,-89.6,81.59,65,75,16.11,EC,1698699466
39,Longyearbyen,78.2186,15.6401,33.64,69,75,8.05,SJ,1698699467
40,Zag,46.9441,99.165,27.86,79,100,1.68,MN,1698699467
41,Yellowknife,62.456,-114.3525,32.34,91,75,12.66,CA,1698699193
42,Lautoka,-17.6167,177.4667,82.26,65,20,3.44,FJ,1698699467
43,Bani Walid,31.7566,13.9942,72.32,35,41,7.76,LY,1698699467
44,Ilulissat,69.2167,-51.1,26.4,65,2,10.94,GL,1698699467
45,Olonkinbyen,70.9221,-8.7187,34.16,63,100,11.43,SJ,1698699468
46,Souillac,-20.5167,57.5167,77.38,83,75,8.05,MU,1698699468
47,Punta Arenas,-53.15,-70.9167,44.42,53,0,13.8,CL,1698699468
48,Tateyama,34.9833,139.8667,61.11,71,3,7.43,JP,1698699468
49,Charters Towers,-20.1,146.2667,68.04,67,12,7.72,AU,1698699468
50,Piti Village,13.4626,144.6933,80.82,89,0,5.75,GU,1698699468
51,Chittarkonda,18.1167,82.0833,63.95,92,22,2.35,IN,1698699469
52,Kotri,25.366,68.3122,81.21,38,2,6.87,PK,1698699469
53,Labrador City,52.9463,-66.9114,26.51,46,75,8.05,CA,1698699469
54,Bokhan,53.153,103.7714,22.03,65,99,2.53,RU,1698699469
55,Saint-Pierre,-21.3393,55.4781,74.88,69,20,3.44,RE,1698699469
56,Aripuanã,-9.1667,-60.6333,84.47,57,90,4.09,BR,1698699469
57,Port-aux-Français,-49.35,70.2167,37.45,83,100,36.86,TF,1698699470
58,Yichun,47.7,128.9,31.03,57,100,3.38,CN,1698699470
59,Igarka,67.4667,86.5833,0.54,96,94,3.94,RU,1698699470
60,Kimbe,-5.5502,150.1429,75.22,96,100,2.51,PG,1698699470
61,Mossendjo,-2.9506,12.7261,71.2,99,88,2.73,CG,1698699470
62,Dryden,49.7833,-92.7503,26.89,86,100,6.91,CA,1698699471
63,Jamestown,42.097,-79.2353,41.38,97,100,14.97,US,1698699277
64,Klyuchi,52.2667,79.1667,43.93,92,100,10.71,RU,1698699471
65,Ormara,25.2088,64.6357,80.08,69,2,8.32,PK,1698699471
66,Forbes,-33.3833,148.0167,57.24,46,100,14.27,AU,1698699471
67,Hammerfest,70.6634,23.6821,32.45,93,40,10.36,NO,1698699231
68,Gulf Breeze,30.3571,-87.1639,79.25,70,75,10.36,US,1698699471
69,Cova Figueira,14.8905,-24.2934,74.61,67,11,2.55,CV,1698699472
70,Juankoski,63.0667,28.35,21.85,95,44,2.08,FI,1698699472
71,Iqaluit,63.7506,-68.5145,9.7,72,75,19.57,CA,1698699472
72,Serenje,-13.2325,30.2352,67.57,73,77,12.12,ZM,1698699472
73,Nemuro,43.3236,145.575,49.59,80,9,9.95,JP,1698699472
74,Praia da Vitória,38.7333,-27.0667,66.45,72,20,11.9,PT,1698699472
75,Rongelap,11.1635,166.8941,83.1,79,100,23.53,MH,1698699473
76,Invercargill,-46.4,168.35,50.02,91,99,4.0,NZ,1698699473
77,Mount Pearl,47.5166,-52.7813,39.63,61,100,12.66,CA,1698699473
78,Porto-Novo,6.4965,2.6036,80.08,83,100,4.79,BJ,1698699258
79,Gaimán,-43.2897,-65.4929,48.36,63,100,15.82,AR,1698699473
80,Hawaiian Paradise Park,19.5933,-154.9731,78.01,91,100,8.05,US,1698699473
81,Blagoveshchensk,50.2667,127.5333,18.21,79,0,0.0,RU,1698699372
82,Chonchi,-42.6128,-73.8092,52.12,87,95,2.55,CL,1698699474
83,Anadyr,64.75,177.4833,30.0,100,75,13.42,RU,1698699474
84,Lewiston Orchards,46.3804,-116.9754,49.77,57,5,1.12,US,1698699474
85,Lae,-6.7221,146.9847,74.07,93,100,4.63,PG,1698699474
86,Taoudenni,22.6783,-3.9836,91.62,9,45,5.79,ML,1698699474
87,Chibougamau,49.9168,-74.3659,26.22,86,100,8.05,CA,1698699474
88,Bodø,67.28,14.405,26.67,81,0,12.66,NO,1698699474
89,Sampit,-2.5333,112.95,74.77,96,93,0.4,ID,1698699475
90,Ta`ū,-14.2336,-169.5144,80.44,82,59,26.96,AS,1698699475
91,Camargo,27.6667,-105.1667,45.28,69,100,9.98,MX,1698699475
92,Hamilton,39.1834,-84.5333,43.93,84,100,11.5,US,1698699180
93,Hinesville,31.8469,-81.5959,83.17,39,0,0.0,US,1698699475
94,Stanley,54.868,-1.6985,42.85,94,100,8.03,GB,1698699475
95,Bredasdorp,-34.5322,20.0403,58.33,74,0,20.51,ZA,1698699475
96,Harstad,68.799,16.5293,31.42,96,57,15.99,NO,1698699476
97,Saint-Philippe,-21.3585,55.7679,74.79,83,18,9.17,RE,1698699476
98,San Julián,21.0167,-102.1667,77.47,20,4,7.61,MX,1698699476
99,Cabo San Lucas,22.8909,-109.9124,84.76,65,1,1.01,MX,1698699185
100,Utrik,11.2278,169.8474,82.49,81,94,21.32,MH,1698699476
101,Walvis Bay,-22.9575,14.5053,58.15,88,11,4.61,NA,1698699476
102,Tofol,5.3248,163.0078,83.46,73,100,10.56,FM,1698699477
103,Ancud,-41.8697,-73.8203,48.36,59,27,9.89,CL,1698699477
104,Vikulovo,56.8167,70.6107,21.02,91,90,10.22,RU,1698699477
105,Puerto Ayora,-0.7393,-90.3518,76.55,89,100,5.01,EC,1698699477
106,Kutná Hora,49.9484,15.2682,60.76,81,0,9.22,CZ,1698699477
107,Dickinson,29.4608,-95.0513,50.11,84,100,16.11,US,1698699478
108,Ribeira Grande,38.5167,-28.7,66.6,77,40,14.0,PT,1698699478
109,George Town,5.4112,100.3354,79.11,92,20,5.75,MY,1698699197
110,Isafjordur,66.0755,-23.124,36.37,75,87,4.83,IS,1698699478
111,Keflavik,64.0049,-22.5624,39.63,70,40,13.8,IS,1698699478
112,Tazovsky,67.4667,78.7,1.35,95,20,4.29,RU,1698699478
113,Antsiranana,-12.2787,49.2917,76.48,82,98,13.42,MG,1698699478
114,Kalmunai,7.4167,81.8167,77.7,84,53,4.18,LK,1698699479
115,Bichura,50.5881,107.6022,23.23,70,29,3.58,RU,1698699479
116,Hakui,36.8833,136.7833,49.12,87,3,3.09,JP,1698699479
117,Cacequi,-29.8836,-54.825,67.8,93,100,20.89,BR,1698699479
118,Cadale,2.7603,46.3222,81.09,74,36,7.27,SO,1698699479
119,Tsiombe,-25.3,45.4833,71.82,84,100,5.08,MG,1698699479
120,Enewetak,11.3474,162.3373,83.28,79,100,22.73,MH,1698699480
121,Tashtagol,52.7657,87.8894,38.52,99,100,4.0,RU,1698699480
122,Margate,51.3813,1.3862,48.69,92,100,14.9,GB,1698699480
123,Ashgabat,37.95,58.3833,66.06,48,100,13.8,TM,1698699183
124,Kokopo,-4.352,152.2633,76.64,87,100,8.52,PG,1698699481
125,Tura,25.5198,90.2201,67.42,87,95,3.49,IN,1698699481
126,Greymouth,-42.4667,171.2,59.81,63,100,3.06,NZ,1698699481
127,Ambovombe,-25.1667,46.0833,71.62,83,97,6.6,MG,1698699481
128,Ghadames,30.1337,9.5007,80.02,18,53,12.55,LY,1698699481
129,Al Burayqah,30.4062,19.5739,73.78,68,15,10.74,LY,1698699482
130,Miami Beach,25.7906,-80.1301,84.29,71,75,10.36,US,1698699254
131,Kailua-Kona,19.6406,-155.9956,83.8,68,20,6.91,US,1698699427
132,Acapulco de Juárez,16.8634,-99.8901,84.06,77,42,5.28,MX,1698699409
133,Mont-Dore,-22.2833,166.5833,75.0,99,9,4.54,NC,1698699482
134,Plettenberg Bay,-34.0527,23.3716,56.19,73,0,14.85,ZA,1698699482
135,Hermanus,-34.4187,19.2345,58.75,75,1,21.54,ZA,1698699482
136,Whitehorse,60.7161,-135.0538,34.14,93,100,8.05,CA,1698699483
137,Konosha,60.9736,40.257,22.68,94,98,3.33,RU,1698699483
138,Saint Paul Harbor,57.79,-152.4072,45.91,93,100,9.22,US,1698699483
139,Sabang,5.8933,95.3214,80.62,78,100,2.55,ID,1698699483
140,Morehead City,34.7229,-76.726,75.47,82,0,17.27,US,1698699483
141,Susuman,62.7833,148.1667,1.98,97,86,1.01,RU,1698699483
142,Koungheul,13.9833,-14.8,87.1,53,74,8.52,SN,1698699483
143,Thompson,55.7435,-97.8558,21.36,63,100,14.97,CA,1698699484
144,Anloga,5.7947,0.8973,83.32,76,71,6.24,GH,1698699484
145,Vilhena,-12.7406,-60.1458,71.82,94,75,18.41,BR,1698699189
146,Ust-Nera,64.5667,143.2,-0.99,100,88,4.29,RU,1698699484
147,Xinglongshan,43.9561,125.4661,44.35,53,75,11.18,CN,1698699484
148,Coihueco,-36.6167,-71.8333,57.94,38,75,8.05,CL,1698699416
149,Ugoofaaru,5.6667,73.0,81.27,75,100,5.86,MV,1698699484
150,Vorgashor,67.5833,63.95,10.13,88,100,8.25,RU,1698699485
151,Wad Rāwah,15.1603,33.1397,89.92,37,72,7.2,SD,1698699485
152,Fujin,47.26,132.0322,34.61,79,89,0.92,CN,1698699485
153,Cañon City,38.441,-105.2424,41.2,48,0,5.75,US,1698699485
154,New Norfolk,-42.7826,147.0587,47.52,89,63,6.38,AU,1698699485
155,Camariñas,43.1311,-9.1817,59.92,76,10,16.22,ES,1698699485
156,Jianshui,23.6363,102.8264,59.36,94,100,2.59,CN,1698699486
157,Warrnambool,-38.3833,142.4833,52.14,62,57,17.92,AU,1698699419
158,Homer,59.6425,-151.5483,44.22,80,0,4.61,US,1698699304
159,Tôlanaro,-25.0319,46.9987,77.07,73,75,9.22,MG,1698699486
160,Margaret River,-33.95,115.0667,47.34,90,25,9.15,AU,1698699262
161,Tamanghasset,22.785,5.5228,78.71,14,40,4.61,DZ,1698699486
162,Jiquilisco,13.3167,-88.5833,75.15,96,100,7.31,SV,1698699486
163,Betio Village,1.358,172.9211,78.84,75,43,9.42,KI,1698699486
164,Yalıhüyük,37.3008,32.0855,60.19,47,100,3.2,TR,1698699487
165,Muhos,64.808,25.9931,22.77,98,66,2.37,FI,1698699487
166,Chui,-33.6971,-53.4616,59.58,94,100,12.91,UY,1698699223
167,Pielavesi,63.2333,26.75,18.52,98,33,2.33,FI,1698699487
168,Plonéour-Lanvern,47.9,-4.2833,53.92,94,75,10.36,FR,1698699487
169,Papao,-17.75,-149.55,85.68,83,22,20.02,PF,1698699487
170,Hirara,24.8,125.2833,75.47,73,20,11.5,JP,1698699487
171,Lihue,21.9789,-159.3672,80.58,71,20,6.91,US,1698699488
172,Enumclaw,47.2043,-121.9915,53.13,54,12,2.71,US,1698699475
173,Faya-Largeau,17.9257,19.1043,80.89,16,4,14.07,TD,1698699488
174,Kapuskasing,49.4169,-82.4331,30.2,59,40,13.8,CA,1698699488
175,Lázaro Cárdenas,17.9583,-102.2,84.06,76,18,7.05,MX,1698699488
176,Psachná,38.5833,23.6333,63.64,73,0,0.29,GR,1698699488
177,Weno,7.4515,151.8468,83.35,77,91,13.38,FM,1698699489
178,Yuzhno-Kurilsk,44.0306,145.8556,46.38,76,53,6.91,RU,1698699489
179,Tsaratanana,-16.7833,47.65,79.05,66,67,2.71,MG,1698699489
180,Yamada,39.4667,141.95,50.38,85,0,4.81,JP,1698699489
181,Lázaro Cárdenas,17.9583,-102.2,84.06,76,18,7.05,MX,1698699489
182,Udachny,66.4167,112.4,-7.55,100,98,3.96,RU,1698699489
183,Polasara,19.7,84.8167,68.23,84,1,2.21,IN,1698699490
184,Lüderitz,-26.6481,15.1594,65.52,45,0,10.33,NA,1698699490
185,Champerico,14.3,-91.9167,90.14,76,100,12.44,GT,1698699490
186,Lodja,-3.4833,23.4333,70.93,99,97,2.01,CD,1698699490
187,Seminole,28.7086,-81.2081,83.55,59,0,5.01,US,1698699490
188,Huarmey,-10.0681,-78.1522,72.25,75,63,11.72,PE,1698699490
189,Polyarny,69.1989,33.4478,21.94,90,100,16.53,RU,1698699491
190,Delacombe,-37.5891,143.8147,40.73,89,5,1.99,AU,1698699491
191,Popondetta,-8.7537,148.2534,74.21,97,100,2.01,PG,1698699491
192,Fort Bragg,35.139,-79.006,84.25,45,0,16.11,US,1698699231
193,Pasān,22.85,82.2,62.8,71,100,1.52,IN,1698699491
194,Sauðarkrokur,65.7461,-19.6394,29.97,81,47,7.38,IS,1698699491
195,Las Khorey,11.1595,48.1967,80.55,81,5,9.66,SO,1698699492
196,Kuraymah,18.55,31.85,86.94,15,55,11.9,SD,1698699492
197,Kingston,17.997,-76.7936,87.94,75,40,9.22,JM,1698699492
198,Whangarei,-35.7317,174.3239,61.2,99,100,8.52,NZ,1698699492
199,Paphos,34.7667,32.4167,73.18,53,0,5.75,CY,1698699492
200,Pechory,57.8164,27.6119,35.06,100,100,3.06,RU,1698699492
201,Port Lincoln,-34.7333,135.8667,54.66,63,89,12.3,AU,1698699493
202,Atafu Village,-8.5421,-172.5159,83.75,76,51,12.75,TK,1698699493
203,Muaná,-1.5283,-49.2167,88.03,52,9,5.82,BR,1698699493
204,Bo`ka,40.8108,69.1986,64.22,41,100,2.13,UZ,1698699493
205,Okhotsk,59.3833,143.3,22.86,87,100,5.75,RU,1698699493
206,Lompoc,34.6391,-120.4579,76.91,22,0,6.91,US,1698699494
207,Smidovich,48.6,133.8167,31.24,72,92,2.24,RU,1698699494
208,Touros,-5.1989,-35.4608,77.65,73,26,15.08,BR,1698699483
209,Tago,9.0211,126.2317,75.69,86,51,4.18,PH,1698699494
210,Alo,7.4178,6.7371,78.96,89,100,4.03,NG,1698699494
211,Yunfu,22.9306,112.0373,68.09,89,100,2.64,CN,1698699494
212,Coquimbo,-29.9533,-71.3436,65.93,63,0,13.8,CL,1698699494
213,Orchard Homes,46.8633,-114.0484,34.48,64,0,5.75,US,1698699495
214,Hāngal,14.7667,75.1333,70.75,87,85,1.48,IN,1698699495
215,Tiksi,71.6872,128.8694,-4.83,100,58,3.71,RU,1698699495
216,Neiafu,-18.65,-173.9833,77.68,88,75,13.8,TO,1698699495
217,Sitka,57.0531,-135.33,48.09,81,75,8.05,US,1698699495
218,St. John's,47.5649,-52.7093,40.42,60,100,12.66,CA,1698699273
219,Bardai,11.65,7.2333,79.39,24,100,7.47,NG,1698699495
220,Northam,51.0333,-4.2167,52.32,92,31,9.51,GB,1698699496
221,Nova Sintra,14.8667,-24.7167,74.32,64,57,1.88,CV,1698699496
222,Ciudad Bolivar,8.1222,-63.5497,91.38,49,100,6.58,VE,1698699496
223,Guerrero Negro,27.9769,-114.0611,79.61,32,0,9.78,MX,1698699496
224,Bamboo Flat,11.7,92.7167,84.29,74,40,2.3,IN,1698699496
225,Hengchun,22.0042,120.7439,75.54,79,27,13.62,TW,1698699496
226,Crane,31.3974,-102.3501,43.45,37,96,7.2,US,1698699497
227,Port Blair,11.6667,92.75,84.24,74,40,2.3,IN,1698699497
228,Mandalgovi,45.7625,106.2708,29.16,64,57,3.85,MN,1698699497
229,Ulladulla,-35.35,150.4667,64.76,52,2,8.28,AU,1698699497
230,Caucayá,-0.1934,-74.7819,89.76,52,100,3.67,CO,1698699497
231,San Luis de la Loma,17.2706,-100.8939,84.04,78,26,5.77,MX,1698699497
232,Lerwick,60.1545,-1.1494,44.6,57,42,21.77,GB,1698699497
233,Vernon,50.2581,-119.2691,41.86,48,39,1.14,CA,1698699498
234,Jamaame,0.0697,42.745,79.0,79,16,5.75,SO,1698699498
235,Nova Viçosa,-17.8919,-39.3719,76.87,73,60,14.29,BR,1698699498
236,Santa Cruz de la Sierra,-17.8,-63.1667,91.45,52,75,27.63,BO,1698699243
237,Kapaa,22.0752,-159.319,81.01,71,20,6.91,US,1698699498
238,Waspán,14.7419,-83.9717,79.0,90,93,3.18,NI,1698699498
239,Kili,5.6439,169.1211,83.53,76,100,10.02,MH,1698699499
240,Khandyga,62.6667,135.6,14.67,95,100,5.19,RU,1698699499
241,Careiro da Várzea,-3.2003,-59.8119,88.41,50,100,4.07,BR,1698699499
242,Niquero,20.0431,-77.5828,85.5,66,99,6.6,CU,1698699499
243,Leava,-14.3,-178.1667,81.32,81,5,10.78,WF,1698699499
244,Colares,38.7992,-9.4469,61.07,80,100,11.99,PT,1698699499
245,Micheweni,-4.9667,39.8333,77.72,88,61,6.8,TZ,1698699500
246,Fortaleza,-3.7227,-38.5247,83.34,72,0,6.91,BR,1698699500
247,Island Harbour,50.724,-1.2758,47.3,94,76,7.63,GB,1698699500
248,Greenfield,42.9614,-88.0126,37.06,41,20,16.11,US,1698699500
249,Trikala,39.5553,21.7675,64.76,60,0,1.61,GR,1698699500
250,Pereira Barreto,-20.6383,-51.1092,82.58,67,80,6.6,BR,1698699500
251,Kudahuvadhoo,2.6708,72.8944,81.46,74,32,6.96,MV,1698699500
252,Galliano,29.4422,-90.2992,77.94,57,75,14.97,US,1698699501
253,Tyukhtet,56.5389,89.3011,19.85,82,100,9.44,RU,1698699501
254,Basoko,1.2391,23.616,77.63,80,85,2.35,CD,1698699501
255,Dudinka,69.4058,86.1778,1.67,97,100,1.99,RU,1698699501
256,Conception Bay South,47.4999,-52.9981,39.97,65,100,9.69,CA,1698699501
257,College,64.8569,-147.8028,30.87,86,100,0.0,US,1698699501
258,Kattivākkam,13.2167,80.3167,81.07,87,99,9.31,IN,1698699501
259,Nizhnesortymskiy,62.4397,71.7603,12.7,95,93,5.88,RU,1698699502
260,Finisterra,42.9049,-9.2629,58.26,73,7,16.98,ES,1698699502
261,Cecerleg,47.475,101.4542,31.93,59,81,5.03,MN,1698699502
262,Valencia,39.3333,-0.8333,59.92,56,32,13.29,ES,1698699502
263,Maintirano,-18.0667,44.0167,78.08,73,8,13.96,MG,1698699502
264,Ihosy,-22.4,46.1167,70.57,80,22,5.64,MG,1698699502
265,Boa Vista,2.8197,-60.6733,94.98,38,40,9.22,BR,1698699503
266,Codrington,-38.2667,141.9667,52.57,57,67,17.2,AU,1698699503
267,Granville,-33.8333,151.0167,77.4,30,87,7.0,AU,1698699249
268,La Passe,45.5549,-0.8967,53.02,80,50,24.05,FR,1698699503
269,Virginia,37.5481,-77.4467,81.86,49,75,13.8,US,1698698774
270,Galesong,-5.3166,119.3661,77.02,76,31,6.29,ID,1698699504
271,Gadzhiyevo,69.2551,33.3362,21.4,91,100,17.65,RU,1698699504
272,Murzuk,25.9155,13.9184,73.62,28,0,8.95,LY,1698699504
273,Portland,45.5234,-122.6762,56.71,42,20,14.97,US,1698699379
274,Pangody,65.85,74.4859,6.71,95,30,5.53,RU,1698699505
275,Keuruu,62.2667,24.7,20.8,90,68,3.58,FI,1698699505
276,Berezovyy,51.6667,135.7,27.45,60,37,8.32,RU,1698699505
277,Pingliang,35.5392,106.6861,55.11,65,88,1.52,CN,1698699505
278,Thunder Bay,48.4001,-89.3168,30.11,43,100,11.5,CA,1698699505
279,Tekeli,44.83,78.8239,51.89,56,100,10.33,KZ,1698699505
280,Tralee,52.2704,-9.7026,47.08,92,9,4.12,IE,1698699253
281,Badger,64.8,-147.5333,30.56,87,100,0.0,US,1698699506
282,Sandnessjøen,66.0217,12.6316,28.45,86,20,8.05,NO,1698699506
283,Mogocha,53.7333,119.7667,16.14,44,100,0.81,RU,1698699506
284,Christchurch,-43.5333,172.6333,56.37,93,100,16.11,NZ,1698699506
285,Lewistown,40.5992,-77.5714,50.4,80,100,10.96,US,1698699506
286,Saint-François,46.4154,3.9054,49.42,88,100,3.44,FR,1698699507
287,Arraial do Cabo,-22.9661,-42.0278,80.46,78,0,8.05,BR,1698699507
288,Nan,18.8333,100.6667,69.53,99,100,2.04,TH,1698699507
289,Palikir,6.9248,158.1611,79.54,94,40,0.0,FM,1698699507
290,Bogale,16.2833,95.4,75.99,94,100,5.68,MM,1698699507
291,Wang Sai Phun,16.3885,100.538,78.82,99,100,4.74,TH,1698699507
292,Broken Hill,-31.95,141.4333,51.8,64,100,17.0,AU,1698699507
293,Belaya Kholunitsa,58.84,50.8528,28.13,86,100,3.89,RU,1698699508
294,Lentekhi,42.7856,42.7261,53.91,79,0,6.11,GE,1698699508
295,Constanța,44.1833,28.65,57.88,75,0,8.5,RO,1698699500
296,Buta,2.7858,24.73,71.29,94,58,2.44,CD,1698699508
297,Westerland,54.9079,8.3033,51.66,93,75,9.22,DE,1698699508
298,Motygino,58.1831,94.7592,18.79,75,2,1.01,RU,1698699508
299,Arrondissement du Havre,49.5833,0.3333,50.23,93,75,10.36,FR,1698699509
300,Spring Creek,40.7266,-115.5859,44.19,19,0,3.47,US,1698699509
301,Revda,56.801,59.9303,20.71,97,97,0.38,RU,1698699509
302,Lebu,-37.6167,-73.65,51.48,60,74,11.52,CL,1698699509
303,Wickenburg,33.9686,-112.7296,74.05,8,0,3.58,US,1698699509
304,Undurkhaan,47.3194,110.6556,17.28,95,44,2.24,MN,1698699509
305,Hadibu,12.65,54.0333,79.56,76,92,8.41,YE,1698699510
306,Sogndal,61.2283,7.1003,35.98,55,75,5.75,NO,1698699510
307,Pisco,-13.7,-76.2167,75.25,60,48,20.71,PE,1698699510
308,Crucecita,-28.95,-58.9833,75.18,75,60,10.8,AR,1698699510
309,Wailua Homesteads,22.0669,-159.378,79.41,72,20,6.91,US,1698699407
310,Pacific Grove,36.6177,-121.9166,73.15,26,0,6.91,US,1698699510
311,Hard Bargain,26.3167,-77.5667,79.11,84,8,17.54,BS,1698699510
312,Recodo,6.9519,121.9636,77.88,86,83,2.26,PH,1698699511
313,Oskarshamn,57.2645,16.4484,47.98,87,54,11.43,SE,1698699511
314,Trinity Beach,-16.7888,145.6968,69.69,73,62,8.05,AU,1698699511
315,Sirsilla,18.3833,78.8333,69.13,70,3,1.1,IN,1698699511
316,Laguna,38.421,-121.4238,70.92,30,0,1.99,US,1698699511
317,Chilliwack,49.1747,-121.9443,53.35,43,57,11.5,CA,1698699511
318,Atherton,53.5237,-2.4935,47.17,94,100,1.01,GB,1698699511
319,Sidrolândia,-20.9319,-54.9614,94.21,34,72,7.52,BR,1698699512
320,Mount Gambier,-37.8333,140.7667,51.64,56,79,9.93,AU,1698699512
321,Beloretsk,53.9631,58.3981,25.52,91,94,11.01,RU,1698699512
322,Kourou,5.1552,-52.6478,87.85,78,69,10.02,GF,1698699512
323,Parauapebas,-6.0675,-49.9022,89.58,61,72,2.3,BR,1698699426
324,Diu,20.7141,70.9822,76.68,54,5,6.15,IN,1698699512
325,Carqueiranne,43.0953,6.073,61.5,85,0,3.44,FR,1698699513
326,Selfoss,63.9331,-20.9971,33.04,79,22,7.92,IS,1698699513
327,Hilo,19.7297,-155.09,78.51,87,100,8.05,US,1698699513
328,Harran,36.86,39.0314,73.76,32,98,4.65,TR,1698699513
329,Show Low,34.2542,-110.0298,49.39,33,0,11.5,US,1698699513
330,Happy Valley-Goose Bay,53.3168,-60.3315,34.11,37,40,17.27,CA,1698699513
331,Bowling Green,36.9903,-86.4436,43.93,85,100,3.44,US,1698699513
332,Newman,37.3138,-121.0208,68.67,36,7,3.0,US,1698699400
333,Argos,37.6333,22.7333,67.06,73,1,2.1,GR,1698699514
334,El Matama,16.7095,33.3565,91.63,26,48,8.77,SD,1698699514
335,Banjar,-8.19,114.9675,74.66,85,37,3.56,ID,1698699514
336,Uturoa,-16.7333,-151.4333,79.0,80,16,17.78,PF,1698699514
337,Morondava,-20.2833,44.2833,76.78,67,49,7.67,MG,1698699514
338,Daru,-9.0763,143.2092,78.4,83,100,13.89,PG,1698699515
339,New Plymouth,-39.0667,174.0833,62.31,69,100,5.37,NZ,1698699515
340,Shanhecun,44.7,127.2,42.8,61,100,6.44,CN,1698699515
341,Ar Rahad,12.7167,30.65,86.49,43,97,6.13,SD,1698699515
342,Naryan-Mar,67.6713,53.087,20.1,95,99,10.0,RU,1698699515
343,Vadsø,70.0744,29.7487,28.56,86,75,11.5,NO,1698699515
344,Kingscliff,-28.2667,153.5667,69.69,64,1,11.5,AU,1698699515
345,Ola,59.5833,151.2833,25.74,67,8,6.11,RU,1698699516
346,At-Bashi,41.1702,75.8106,44.65,49,98,2.42,KG,1698699516
347,Katsuura,35.1333,140.3,62.13,71,0,5.17,JP,1698699516
348,Barkhan,29.8977,69.5256,66.25,40,2,2.73,PK,1698699516
349,Tsengel,49.4783,100.8894,27.93,79,97,1.68,MN,1698699516
350,Goiatuba,-18.0125,-49.3547,89.42,35,78,5.46,BR,1698699490
351,Awjilah,29.1081,21.2869,73.29,49,89,7.34,LY,1698699516
352,Inhambane,-23.865,35.3833,67.24,70,65,10.4,MZ,1698699517
353,Hailey,43.5196,-114.3153,41.41,50,0,11.5,US,1698699517
354,Tobelo,1.7284,128.0095,79.56,80,86,1.39,ID,1698699517
355,Saldanha,-33.0117,17.9442,68.05,57,0,17.85,ZA,1698699517
356,Ekuvukeni,-28.4675,30.1551,46.47,90,100,3.2,ZA,1698699517
357,De Aar,-30.6497,24.0123,51.98,68,90,14.63,ZA,1698699517
358,Zhoukou,33.6333,114.6333,63.55,58,1,7.94,CN,1698699518
359,Lilongwe,-13.9669,33.7873,69.96,73,8,8.66,MW,1698699518
360,Chimoio,-19.1164,33.4833,59.95,100,100,7.45,MZ,1698699518
361,Avarua,-21.2078,-159.775,77.05,69,75,14.97,CK,1698699518
362,Saki,8.6667,3.3833,76.68,71,90,4.74,NG,1698699518
363,Vilyuysk,63.7553,121.6247,5.0,96,99,4.0,RU,1698699518
364,Nikolayevsk-on-Amur,53.1406,140.73,29.95,93,13,4.36,RU,1698699518
365,San Patricio,28.017,-97.5169,48.88,64,97,20.11,US,1698699519
366,Bermeo,43.4209,-2.7215,55.87,67,24,7.61,ES,1698699519
367,Queenstown,-31.8976,26.8753,45.7,82,85,8.59,ZA,1698699519
368,Río Gallegos,-51.6226,-69.2181,44.65,33,75,9.22,AR,1698699519
369,Vila Franca do Campo,37.7167,-25.4333,62.89,99,44,7.2,PT,1698699519
370,Itoman,26.1247,127.6694,71.74,73,20,9.22,JP,1698699519
371,Kidal,18.4411,1.4078,85.08,9,0,11.95,ML,1698699519
372,Kununurra,-15.7667,128.7333,76.98,88,100,6.91,AU,1698699520
373,Holualoa,19.6228,-155.9522,80.33,68,20,6.91,US,1698699520
374,Arteche,12.2645,125.4048,78.3,91,100,8.57,PH,1698699520
375,Nadvoitsy,63.8667,34.3167,21.15,96,90,3.06,RU,1698699520
376,Zambezi,-13.5432,23.1047,68.38,75,68,5.3,ZM,1698699520
377,Howrah,22.5892,88.3103,77.0,83,48,0.0,IN,1698699521
378,Keelung,25.1283,121.7419,72.18,86,72,9.55,TW,1698699521
379,Muhafazat Ma'rib,15.4591,45.3253,80.35,37,76,6.4,YE,1698699521
380,Emerald,-23.5333,148.1667,66.34,58,0,7.45,AU,1698699521
381,Trairi,-3.2778,-39.2689,78.67,74,98,11.3,BR,1698699411
382,Dolores,-36.3132,-57.6792,65.19,36,88,6.6,AR,1698699521
383,Malchow,53.4748,12.4221,51.84,91,100,6.49,DE,1698699521
384,Angaur State,6.906,134.13,82.58,75,14,7.31,PW,1698699522
385,San Lorenzo de Esmeraldas,1.2883,-78.8369,80.13,80,100,8.63,EC,1698699522
386,Mayna,54.1135,47.6231,31.19,87,100,14.7,RU,1698699522
387,Ardestān,33.3761,52.3694,65.1,33,62,4.7,IR,1698699522
388,San Andrés,12.5847,-81.7006,80.62,89,40,8.05,CO,1698699522
389,Puerto del Rosario,28.5004,-13.8627,73.15,73,20,3.44,ES,1698699522
390,Nchelenge,-9.3451,28.734,75.79,70,100,0.47,ZM,1698699523
391,Lensk,60.7253,114.9278,17.28,89,100,5.23,RU,1698699523
392,Tuburan,6.6439,122.2736,81.14,75,91,0.36,PH,1698699523
393,Cologne,50.9333,6.95,55.36,91,75,9.22,DE,1698699523
394,Gannan,47.9147,123.5031,33.37,47,100,8.3,CN,1698699523
395,Nuuk,64.1835,-51.7216,35.89,66,100,12.08,GL,1698699523
396,East London,-33.0153,27.9116,58.89,80,73,12.8,ZA,1698699523
397,Grand Falls-Windsor,48.9332,-55.6649,38.5,64,100,4.47,CA,1698699524
398,Saint John,45.2727,-66.0677,33.03,100,100,5.75,CA,1698699330
399,Kamloops,50.6665,-120.3192,38.39,52,20,9.22,CA,1698699283
400,Arnö,60.1167,18.6333,39.78,96,100,18.43,SE,1698699524
401,Riyadh,24.6877,46.7219,75.34,41,4,9.51,SA,1698699388
402,Birjand,32.8663,59.2211,55.87,30,0,6.91,IR,1698699524
403,Zabaykal'sk,49.6333,117.3167,20.88,91,98,15.14,RU,1698699524
404,Wotho,10.1657,166.0102,80.38,87,100,23.24,MH,1698699524
405,Mossamedes,-15.1961,12.1522,65.86,81,0,4.18,AO,1698699525
406,Callao,-12.0667,-77.15,71.89,68,0,14.97,PE,1698699525
407,Saynshand,44.8824,110.1163,31.73,77,26,3.33,MN,1698699525
408,Cologne,50.9333,6.95,55.36,91,75,9.22,DE,1698699274
409,Laojunmiao,39.8333,97.7333,45.64,27,89,4.07,CN,1698699525
410,La Santisima Trinidad,-14.8333,-64.9,94.98,43,40,16.11,BO,1698699525
411,Gunnedah,-30.9833,150.25,70.45,31,6,0.81,AU,1698699526
412,Burutu,5.3509,5.5076,78.89,86,100,4.23,NG,1698699526
413,Mejit,10.2753,170.8646,82.74,81,99,20.92,MH,1698699526
414,Bay Harbor,30.1471,-85.6146,81.72,70,40,8.05,US,1698699526
415,Sur,22.5667,59.5289,78.78,67,8,7.23,OM,1698699527
416,Guangyuan,32.442,105.823,60.64,90,90,1.05,CN,1698699527
417,Rome,43.2128,-75.4557,42.94,90,75,10.36,US,1698699527
418,Mrakovo,52.7161,56.6244,31.46,93,100,10.0,RU,1698699527
419,Ribadesella,43.4614,-5.0596,58.95,68,19,10.74,ES,1698699527
420,Naze,28.3667,129.4833,67.12,75,56,10.74,JP,1698699528
421,Fairmount,43.0473,-76.2385,43.05,93,100,10.36,US,1698699528
422,Brookings,44.3114,-96.7984,40.8,45,0,28.77,US,1698699528
423,San Sebastián de La Gomera,28.0916,-17.1133,75.56,78,75,10.36,ES,1698699528
424,Turriff,57.5384,-2.4593,42.48,65,97,9.66,GB,1698699529
425,Porbandar,21.6422,69.6093,80.1,58,0,6.4,IN,1698699529
426,Yemetsk,63.4721,41.7941,20.88,90,10,3.29,RU,1698699529
427,Port-Gentil,-0.7193,8.7815,80.56,94,40,8.05,GA,1698699529
428,Sechura,-5.5569,-80.8222,79.38,58,46,16.6,PE,1698699529
429,Minas de Marcona,-15.2119,-75.1103,65.7,65,9,19.08,PE,1698699529
430,Moyo,3.6609,31.7247,65.84,94,100,1.97,UG,1698699530
431,Virginia Beach,36.8529,-75.978,82.67,51,0,13.8,US,1698699471
432,El Nido,11.1858,119.3956,82.04,76,96,7.18,PH,1698699530
433,Puerto Deseado,-47.7503,-65.8938,42.44,48,100,21.74,AR,1698699530
434,Saipan,15.1355,145.701,83.1,83,40,12.66,MP,1698699530
435,Sinabang,2.4803,96.3801,77.5,88,100,4.41,ID,1698699531
436,Avanigadda,16.0215,80.9181,75.94,82,47,4.41,IN,1698699531
437,Maceió,-9.6658,-35.7353,80.04,73,0,9.22,BR,1698699531
438,Zigong,29.3416,104.7769,66.47,77,100,3.58,CN,1698699531
439,Fort St. John,56.2499,-120.8529,37.29,56,75,2.3,CA,1698699531
440,San Antonio de Palé,-1.4014,5.6325,79.77,83,100,12.28,GQ,1698699531
441,Kenai,60.5544,-151.2583,40.39,82,0,10.36,US,1698699532
442,Iskateley,67.6803,53.1512,20.01,95,99,10.0,RU,1698699532
443,Hasaki,35.7333,140.8333,54.0,61,8,6.96,JP,1698699532
444,Puruliya,23.3333,86.3667,68.88,67,26,2.84,IN,1698699532
445,Naha,26.2125,127.6811,71.69,73,20,9.22,JP,1698699532
446,Cabedelo,-6.9811,-34.8339,81.27,74,69,13.69,BR,1698699416
447,Villa Gesell,-37.2639,-56.973,59.05,48,89,17.07,AR,1698699533
448,Tshabong,-26.05,22.45,60.87,65,0,24.81,BW,1698699533
449,Benoy,8.9833,16.3199,79.29,62,80,3.22,TD,1698699533
450,Rémire-Montjoly,4.9167,-52.2667,87.84,66,0,11.5,GF,1698699533
451,La Foa,-21.7108,165.8276,69.96,59,15,4.47,NC,1698699533
452,Buzuluk,52.7807,52.2635,31.96,80,100,5.99,RU,1698699533
453,Taro,-8.3862,115.28,70.86,89,41,1.3,ID,1698699533
454,Ben Tre,10.2333,106.3833,77.02,93,100,1.88,VN,1698699534
455,Ordynskoye,54.3656,81.8994,27.21,97,100,8.19,RU,1698699534
456,Suva,-18.1416,178.4415,81.88,83,75,5.75,FJ,1698699534
457,San Francisco de la Paz,14.9,-86.2,85.71,87,100,1.68,HN,1698699534
458,Kovalam,8.3667,76.9967,82.49,83,75,0.0,IN,1698699534
459,Ōhara,35.25,140.3833,61.47,70,0,4.68,JP,1698699534
460,Bryan,30.6744,-96.37,43.54,90,100,13.8,US,1698699535
461,Alice Springs,-23.7,133.8833,63.95,22,70,5.75,AU,1698699535
462,Nelson Bay,-32.7167,152.15,71.53,65,70,5.01,AU,1698699258
463,Guápiles,10.2159,-83.7866,82.04,98,100,1.36,CR,1698699535
464,Al Kharj,24.155,47.3346,81.18,44,7,6.76,SA,1698699535
465,Karakulino,56.012,53.7067,28.22,95,100,7.07,RU,1698699535
466,Machiques,10.0644,-72.545,86.49,73,83,3.44,VE,1698699535
467,Bajina Bašta,43.9708,19.5675,55.78,63,6,6.62,RS,1698699496
468,Kuusamo,65.9667,29.1833,14.04,92,100,10.36,FI,1698699536
469,Ambrizette,-7.2312,12.8666,78.1,87,20,8.95,AO,1698699536
470,Ingeniero Jacobacci,-41.3427,-69.5448,44.55,47,89,8.9,AR,1698699536
471,Viedma,-40.8135,-62.9967,56.46,25,1,13.09,AR,1698699536
472,Santo Antônio,-6.3106,-35.4789,76.57,70,12,15.1,BR,1698699536
473,Ivdel',60.6911,60.4206,24.03,65,100,8.99,RU,1698699537
474,Mount Isa,-20.7333,139.5,69.57,73,65,0.0,AU,1698699537
475,Bonthe,7.5264,-12.505,80.11,82,89,3.98,SL,1698699537
476,Akita,39.7167,140.1167,55.18,80,45,1.86,JP,1698699537
477,Shingū,33.7333,135.9833,60.28,72,96,2.64,JP,1698699537
478,Ar Ruways,24.1103,52.7306,84.34,67,71,11.48,AE,1698699538
479,Cumberland,35.0502,-78.8664,84.58,45,0,16.11,US,1698699538
480,Olyokminsk,60.3736,120.4264,15.06,74,50,3.38,RU,1698699538
481,Villa Regina,-39.1,-67.0667,66.97,15,95,5.99,AR,1698699538
482,Kibale,0.8,31.0667,60.8,92,89,1.72,UG,1698699538
483,Lā‘ie,21.6477,-157.9253,83.39,66,6,7.99,US,1698699538
484,Higuera de Zaragoza,25.95,-109.2833,82.06,52,0,12.01,MX,1698699538
485,Gur'yevsk,54.2833,85.9333,28.53,97,100,4.61,RU,1698699539
486,Kismayo,-0.3582,42.5454,80.04,79,5,9.19,SO,1698699539
487,Korla,41.7597,86.1469,54.45,40,8,7.14,CN,1698699539
488,Andkhōy,36.9529,65.1238,68.38,33,69,6.82,AF,1698699539
489,Östersund,63.1792,14.6357,25.25,93,100,5.75,SE,1698699539
490,Al Muwayh,22.4333,41.7583,79.34,40,73,4.5,SA,1698699539
491,Mahina,-17.5065,-149.489,85.77,70,40,5.75,PF,1698699539
492,Puerto Colombia,10.9878,-74.9547,78.89,75,57,7.2,CO,1698699540
493,Tadotsu,34.275,133.75,57.97,64,0,2.98,JP,1698699540
494,Hede,33.7681,120.2517,59.32,93,0,8.32,CN,1698699540
495,Cidreira,-30.1811,-50.2056,67.5,98,100,8.95,BR,1698699540
496,Lagunas,-5.2269,-75.6753,90.1,51,82,1.41,PE,1698699540
497,Doka,13.5167,35.7667,77.52,66,59,3.18,SD,1698699540
498,Chamdo,31.1667,97.2333,23.74,75,87,2.59,CN,1698699541
499,Borogontsy,62.6683,131.1683,7.41,95,100,6.29,RU,1698699541
500,Tadine,-21.55,167.8833,70.48,56,32,7.43,NC,1698699541
501,Prymors'k,46.7348,36.3443,55.8,78,51,5.12,UA,1698699541
502,Balaipungut,1.05,101.2833,73.9,98,93,1.88,ID,1698699541
503,Kill Devil Hills,36.0307,-75.676,78.37,60,0,18.41,US,1698699415
504,Nantucket,41.2835,-70.0995,60.44,99,100,10.36,US,1698699474
505,Prince George,53.9166,-122.753,40.48,48,20,2.3,CA,1698699310
506,Vorkuta,67.5,64.0,10.85,87,100,8.08,RU,1698699542
507,Tulun,54.5611,100.5792,13.46,88,23,1.88,RU,1698699542
508,Barra do Garças,-15.89,-52.2567,91.98,40,40,2.3,BR,1698699253
509,Toliara,-23.35,43.6667,72.91,77,70,10.92,MG,1698699542
510,Al Bayḑā’,32.7627,21.7551,63.82,82,76,8.14,LY,1698699543
511,Aldinga Beach,-35.2793,138.4604,52.29,64,60,9.33,AU,1698699543
512,Port Douglas,-16.4833,145.4667,72.84,69,86,8.77,AU,1698699543
513,Haugesund,59.4138,5.268,39.45,52,0,10.36,NO,1698699402
514,Wewak,-3.5534,143.6268,76.21,88,100,6.71,PG,1698699543
515,Greenville,35.6127,-77.3663,83.35,48,0,10.36,US,1698699543
516,Kibaya,-5.3,36.5667,63.34,82,100,9.44,TZ,1698699544
517,Yakeshi,49.2833,120.7333,23.65,93,100,14.38,CN,1698699544
518,Veľký Meder,47.858,17.7688,62.69,56,90,10.6,SK,1698699544
519,Schwerin,53.6294,11.4132,52.2,93,100,1.99,DE,1698699544
520,Villa de Cos,23.2833,-102.35,76.98,25,7,15.86,MX,1698699544
521,Nay Pyi Taw,19.745,96.1297,71.55,96,100,2.84,MM,1698699545
522,Homs,34.7268,36.7234,73.67,46,100,2.98,SY,1698699545
523,Quatre Cocos,-20.2078,57.7625,78.1,81,39,11.21,MU,1698699545
524,Vilyuchinsk,52.9306,158.4028,32.94,78,72,6.85,RU,1698699545
525,Calliope,-24.0,151.2,67.84,73,40,4.61,AU,1698699545
526,Zhelezīnka,53.54,75.3072,31.03,98,100,5.39,KZ,1698699545
527,Houghton,47.1219,-88.569,28.04,83,100,13.8,US,1698699366
528,Concepción,-36.827,-73.0498,55.2,58,0,16.11,CL,1698699546
529,Richards Bay,-28.783,32.0377,60.22,82,100,8.23,ZA,1698699546
530,Yusufeli,40.8204,41.5443,62.02,60,68,1.36,TR,1698699546
531,Horta,38.5333,-28.6333,66.02,80,40,14.0,PT,1698699546
532,Heroica Matamoros,25.8833,-97.5,52.12,76,100,20.71,MX,1698699030
533,Carrigaline,51.8117,-8.3986,49.75,93,20,6.91,IE,1698699460
534,Ejigbo,7.9,4.3167,76.17,83,100,3.42,NG,1698699263
535,Weyburn,49.6668,-103.8511,21.42,58,93,26.46,CA,1698699547
536,Kurchatov,51.6601,35.6521,55.42,77,100,12.93,RU,1698699547
537,Markovo,57.3206,107.0881,17.01,70,91,1.7,RU,1698699547
538,Akureyri,65.6835,-18.0878,21.13,93,0,0.0,IS,1698699547
539,Pago Pago,-14.2781,-170.7025,79.92,82,34,24.29,AS,1698699548
540,Lorengau,-2.0226,147.2712,78.46,86,100,7.38,PG,1698699548
541,Malanje,-9.5402,16.341,67.17,94,96,3.89,AO,1698699265
542,Toamasina,-18.1667,49.3833,75.2,94,40,2.3,MG,1698699548
543,Sohag,26.557,31.6948,79.09,42,0,6.17,EG,1698699548
544,Brezina,33.0989,1.2608,68.36,42,46,9.51,DZ,1698699549
545,Māndal,25.45,74.5667,72.55,40,63,5.79,IN,1698699549
546,Buckhannon,38.994,-80.232,46.24,96,75,10.36,US,1698699549
547,Ephraim,39.3597,-111.5863,48.58,19,0,5.66,US,1698699549
548,Longido,-2.7333,36.6833,68.4,77,98,13.18,TZ,1698699549
549,Preobrazheniye,42.9019,133.9064,50.85,91,6,5.95,RU,1698699550
550,Nagqu Prefecture,31.5,92.0,20.55,90,100,1.48,CN,1698699550
551,Sâmraông,12.4526,105.5873,73.09,97,98,5.23,KH,1698699550
552,Semīrom,31.4167,51.5667,51.85,40,78,4.36,IR,1698699550
553,Tarko-Sale,64.9225,77.785,7.47,95,9,3.36,RU,1698699551
554,Padang,-0.9492,100.3543,73.45,91,100,2.28,ID,1698699551
555,Kavaratti,10.5669,72.642,82.17,70,100,1.9,IN,1698699551
556,Kitui,-1.367,38.0106,65.5,93,34,5.03,KE,1698699551
557,Tianpeng,30.9866,103.9393,63.21,84,100,2.95,CN,1698699551
558,Maysville,38.6412,-83.7444,47.14,76,100,4.61,US,1698699552
559,Nueva Esperanza,15.2667,-87.6,83.82,92,82,4.07,HN,1698699552
560,Umm Kaddadah,13.6017,26.6876,87.01,19,71,10.38,SD,1698699552
561,Tindouf,27.6711,-8.1474,84.65,18,0,5.75,DZ,1698699552
562,Eydhafushi,5.1033,73.0708,79.95,79,100,4.83,MV,1698699553
563,Myeik,12.4333,98.6,77.9,88,100,4.59,MM,1698699553
564,Višnjevac,45.5686,18.6139,58.98,67,0,8.05,HR,1698699553
565,Golfito,8.639,-83.166,75.88,95,100,2.64,CR,1698699553
566,Belton,38.812,-94.5319,39.78,50,0,10.36,US,1698699526
567,Gornopravdinsk,60.05,69.9,16.02,95,91,6.64,RU,1698699554
568,Kurayoshi,35.4333,133.8167,53.62,75,0,4.0,JP,1698699554
569,Okakarara,-20.5833,17.4333,72.61,14,81,11.36,NA,1698699554
570,Narva,59.3772,28.1903,30.38,96,99,3.06,EE,1698699554
571,Howard Springs,-12.497,131.047,76.41,90,78,3.85,AU,1698699554
572,Changling,44.2653,124.0005,47.08,51,100,11.32,CN,1698699555
573,Tarfaya,27.9358,-12.9218,71.49,75,17,7.7,MA,1698699555
574,Dalbandin,28.8947,64.4101,73.58,30,44,2.46,PK,1698699555
575,Khagaria,25.5,86.4833,73.54,61,100,1.52,IN,1698699555
576,Diego de Almagro,-26.3667,-70.05,76.32,16,22,10.4,CL,1698699555
577,Merizo Village,13.2658,144.6691,80.13,93,99,12.3,GU,1698699556
